{
  "exported_at": "2026-02-07T16:04:27.043Z",
  "database": "/home/developer/projects/VueTraccarNuxt/data/app.db",
  "count": 31,
  "pois": [
    {
      "id": 35,
      "poi_key": "marker507989M11075",
      "latitude": 50.798937162772965,
      "longitude": -1.1075592041015625,
      "timestamp": "2025-06-27T16:48:36.000+0000",
      "device_id": 4,
      "address": "Cell 12, Cell Block Studios, College Rd, HM Naval Base, Portsmouth PO1 3LJ, Vereinigtes Königreich",
      "country": "Vereinigtes Königreich",
      "created_at": "2026-02-07 15:37:43",
      "updated_at": "2026-02-07 15:37:43"
    },
    {
      "id": 31,
      "poi_key": "marker510676M18009",
      "latitude": 51.06767041159744,
      "longitude": -1.8009324578618058,
      "timestamp": "2025-06-27T13:34:53.000+0000",
      "device_id": 4,
      "address": "7 Crane Bridge Rd, Salisbury SP2 7TD, Vereinigtes Königreich",
      "country": "Vereinigtes Königreich",
      "created_at": "2026-02-07 15:14:05",
      "updated_at": "2026-02-07 15:14:05"
    },
    {
      "id": 30,
      "poi_key": "marker511826M18589",
      "latitude": 51.182607968747725,
      "longitude": -1.8589647742508109,
      "timestamp": "2025-06-27T11:22:14.000+0000",
      "device_id": 4,
      "address": "54MR+2C Salisbury, Vereinigtes Königreich",
      "country": "Vereinigtes Königreich",
      "created_at": "2026-02-07 15:13:43",
      "updated_at": "2026-02-07 15:13:43"
    },
    {
      "id": 33,
      "poi_key": "marker559498M31911",
      "latitude": 55.949806493281336,
      "longitude": -3.191102091395399,
      "timestamp": "2025-06-23T10:57:53.000+0000",
      "device_id": 4,
      "address": "343 High St, Edinburgh EH1 1PW, Vereinigtes Königreich",
      "country": "Vereinigtes Königreich",
      "created_at": "2026-02-07 15:36:43",
      "updated_at": "2026-02-07 15:36:43"
    },
    {
      "id": 29,
      "poi_key": "marker569460M22058",
      "latitude": 56.946071224642225,
      "longitude": -2.205879721377242,
      "timestamp": "2025-06-20T10:55:03.000+0000",
      "device_id": 4,
      "address": "C&L Catering, Dunnottar Castle, Stonehaven AB39 2TL, Vereinigtes Königreich",
      "country": "Vereinigtes Königreich",
      "created_at": "2026-02-07 15:11:10",
      "updated_at": "2026-02-07 15:11:10"
    },
    {
      "id": 34,
      "poi_key": "marker571464M20948",
      "latitude": 57.14644230196106,
      "longitude": -2.0948562026023865,
      "timestamp": "2025-06-18T14:45:29.000+0000",
      "device_id": 4,
      "address": "The Moorings Bar, 2 Trinity Quay, Aberdeen AB11 5AA, Vereinigtes Königreich",
      "country": "Vereinigtes Königreich",
      "created_at": "2026-02-07 15:37:15",
      "updated_at": "2026-02-07 15:37:15"
    },
    {
      "id": 28,
      "poi_key": "marker574530M31296",
      "latitude": 57.453056892087154,
      "longitude": -3.1296759838193156,
      "timestamp": "2025-06-18T12:53:46.000+0000",
      "device_id": 4,
      "address": "Glenfiddich Distillery, Dufftown, Keith AB55 4AX, Vereinigtes Königreich",
      "country": "Vereinigtes Königreich",
      "created_at": "2026-02-07 15:10:31",
      "updated_at": "2026-02-07 15:10:31"
    },
    {
      "id": 32,
      "poi_key": "marker573239M44431",
      "latitude": 57.32395476496995,
      "longitude": -4.4431695224061825,
      "timestamp": "2025-06-16T13:46:26.000+0000",
      "device_id": 4,
      "address": "8HF4+HP Strone, Inverness, Vereinigtes Königreich",
      "country": "Vereinigtes Königreich",
      "created_at": "2026-02-07 15:35:55",
      "updated_at": "2026-02-07 15:35:55"
    },
    {
      "id": 27,
      "poi_key": "marker576365M62048",
      "latitude": 57.6365384939029,
      "longitude": -6.204892863341338,
      "timestamp": "2025-06-15T14:18:05.000+0000",
      "device_id": 4,
      "address": "JQPW+G7, Portree IV51 9JT, Vereinigtes Königreich",
      "country": "Vereinigtes Königreich",
      "created_at": "2026-02-07 15:05:36",
      "updated_at": "2026-02-07 15:05:36"
    },
    {
      "id": 26,
      "poi_key": "marker575847M63326",
      "latitude": 57.58473080569209,
      "longitude": -6.332679838911301,
      "timestamp": "2025-06-15T12:48:32.000+0000",
      "device_id": 4,
      "address": "HMM8+VW Portree, Vereinigtes Königreich",
      "country": "Vereinigtes Königreich",
      "created_at": "2026-02-07 15:05:20",
      "updated_at": "2026-02-07 15:05:20"
    },
    {
      "id": 25,
      "poi_key": "marker565903M52008",
      "latitude": 56.59030711862205,
      "longitude": -5.20083061561786,
      "timestamp": "2025-06-13T11:48:16.000+0000",
      "device_id": 4,
      "address": "HQRX+4M Appin, Vereinigtes Königreich",
      "country": "Vereinigtes Königreich",
      "created_at": "2026-02-07 15:04:42",
      "updated_at": "2026-02-07 15:04:42"
    },
    {
      "id": 24,
      "poi_key": "marker568458M50968",
      "latitude": 56.84585058448581,
      "longitude": -5.096862316131592,
      "timestamp": "2025-06-12T14:46:46.000+0000",
      "device_id": 4,
      "address": "2 Neptune Way, Banavie, Fort William PH33 7PL, Vereinigtes Königreich",
      "country": "Vereinigtes Königreich",
      "created_at": "2026-02-07 15:03:53",
      "updated_at": "2026-02-07 15:03:53"
    },
    {
      "id": 23,
      "poi_key": "marker568713M54380",
      "latitude": 56.871398202576025,
      "longitude": -5.4380550149175955,
      "timestamp": "2025-06-12T14:19:45.000+0000",
      "device_id": 4,
      "address": "Slatach Road End, Glenfinnan PH37 4LT, Vereinigtes Königreich",
      "country": "Vereinigtes Königreich",
      "created_at": "2026-02-07 15:02:57",
      "updated_at": "2026-02-07 15:02:57"
    },
    {
      "id": 22,
      "poi_key": "marker566564M48712",
      "latitude": 56.656473163533754,
      "longitude": -4.8712201558352985,
      "timestamp": "2025-06-11T14:18:29.000+0000",
      "device_id": 4,
      "address": "M44H+HG Ballachulish, Vereinigtes Königreich",
      "country": "Vereinigtes Königreich",
      "created_at": "2026-02-07 15:02:17",
      "updated_at": "2026-02-07 15:02:17"
    },
    {
      "id": 21,
      "poi_key": "marker566324M48279",
      "latitude": 56.63245466732717,
      "longitude": -4.827914448458823,
      "timestamp": "2025-06-11T13:42:42.000+0000",
      "device_id": 4,
      "address": "1 White Corries, Kingshouse, Glencoe, Ballachulish PH49 4HZ, Vereinigtes Königreich",
      "country": "Vereinigtes Königreich",
      "created_at": "2026-02-07 15:01:32",
      "updated_at": "2026-02-07 15:01:32"
    },
    {
      "id": 20,
      "poi_key": "marker561700M46775",
      "latitude": 56.1700764575284,
      "longitude": -4.677594916086997,
      "timestamp": "2025-06-11T12:09:10.000+0000",
      "device_id": 4,
      "address": "58CC+2X Arrochar, Vereinigtes Königreich",
      "country": "Vereinigtes Königreich",
      "created_at": "2026-02-07 15:00:31",
      "updated_at": "2026-02-07 15:00:31"
    },
    {
      "id": 19,
      "poi_key": "marker550048M30629",
      "latitude": 55.004897996618546,
      "longitude": -3.0629343477203297,
      "timestamp": "2025-06-09T13:24:15.000+0000",
      "device_id": 4,
      "address": "Stormont Terrace, Gretna Green, Gretna DG16 5DZ, Vereinigtes Königreich",
      "country": "Vereinigtes Königreich",
      "created_at": "2026-02-07 14:58:24",
      "updated_at": "2026-02-07 14:58:24"
    },
    {
      "id": 18,
      "poi_key": "marker549904M26014",
      "latitude": 54.99040589209416,
      "longitude": -2.601490342902575,
      "timestamp": "2025-06-09T12:17:32.000+0000",
      "device_id": 4,
      "address": "Gilsland, Hadrian's Wall Path, Brampton CA8 7DD, Vereinigtes Königreich",
      "country": "Vereinigtes Königreich",
      "created_at": "2026-02-07 14:56:42",
      "updated_at": "2026-02-07 14:56:42"
    },
    {
      "id": 16,
      "poi_key": "marker535570M67881",
      "latitude": 53.55709919325618,
      "longitude": -6.788104111469351,
      "timestamp": "2025-05-30T13:52:29.000+0000",
      "device_id": 4,
      "address": "21 High St, Townparks North, Trim, Co. Meath, C15 FP98, Irland",
      "country": "Irland",
      "created_at": "2026-02-07 14:52:47",
      "updated_at": "2026-02-07 14:52:47"
    },
    {
      "id": 17,
      "poi_key": "marker536952M64464",
      "latitude": 53.69520074141785,
      "longitude": -6.446445049513505,
      "timestamp": "2025-05-30T12:47:55.000+0000",
      "device_id": 4,
      "address": "Newgrange Visitor C, Stalleen, Co. Meath, Irland",
      "country": "Irland",
      "created_at": "2026-02-07 14:54:16",
      "updated_at": "2026-02-07 14:54:16"
    },
    {
      "id": 4,
      "poi_key": "marker541980M91783",
      "latitude": 54.198076376366224,
      "longitude": -9.178341259222055,
      "timestamp": "2025-05-25T14:36:08.000+0000",
      "device_id": 4,
      "address": "5RXC+6M Ballintean, County Mayo, Irland",
      "country": "Irland",
      "created_at": "2026-02-07 13:52:36",
      "updated_at": "2026-02-07 13:52:36"
    },
    {
      "id": 12,
      "poi_key": "marker539574M10026",
      "latitude": 53.957457189108936,
      "longitude": -10.02659940683788,
      "timestamp": "2025-05-25T10:36:45.000+0000",
      "device_id": 4,
      "address": "Barr na Mhionnáin, Co. Mayo, Irland",
      "country": "Irland",
      "created_at": "2026-02-07 14:43:04",
      "updated_at": "2026-02-07 14:43:04"
    },
    {
      "id": 15,
      "poi_key": "marker539707M99831",
      "latitude": 53.97073432569827,
      "longitude": -9.983173496495283,
      "timestamp": "2025-05-23T13:20:12.000+0000",
      "device_id": 4,
      "address": "R319, Bunacurry, Co. Mayo, Irland",
      "country": "Irland",
      "created_at": "2026-02-07 14:49:34",
      "updated_at": "2026-02-07 14:49:34"
    },
    {
      "id": 1,
      "poi_key": "marker530468M91402",
      "latitude": 53.04688263006421,
      "longitude": -9.140245329853379,
      "timestamp": "2025-05-15T16:32:35.000+0000",
      "device_id": 4,
      "address": "2VW5+QW Glenslane, County Clare, Irland",
      "country": "Irland",
      "created_at": "2026-02-07 13:00:54",
      "updated_at": "2026-02-07 13:00:54"
    },
    {
      "id": 11,
      "poi_key": "marker529902M92160",
      "latitude": 52.99023150059212,
      "longitude": -9.216075813370445,
      "timestamp": "2025-05-15T16:04:48.000+0000",
      "device_id": 4,
      "address": "Kilfenora, Kilfenora, Co. Clare, Irland",
      "country": "Irland",
      "created_at": "2026-02-07 14:39:47",
      "updated_at": "2026-02-07 14:39:47"
    },
    {
      "id": 9,
      "poi_key": "marker529332M93474",
      "latitude": 52.93322004953052,
      "longitude": -9.347434253956218,
      "timestamp": "2025-05-15T12:33:25.000+0000",
      "device_id": 4,
      "address": "WMM2+6X5, Dough, Lahinch, Co. Clare, Irland",
      "country": "Irland",
      "created_at": "2026-02-07 14:20:23",
      "updated_at": "2026-02-07 14:20:23"
    },
    {
      "id": 8,
      "poi_key": "marker521417M99818",
      "latitude": 52.14173404155275,
      "longitude": -9.981841830791355,
      "timestamp": "2025-05-05T12:39:32.000+0000",
      "device_id": 4,
      "address": "42R9+M7 Inch Beach, County Kerry, Irland",
      "country": "Irland",
      "created_at": "2026-02-07 14:18:35",
      "updated_at": "2026-02-07 14:18:35"
    },
    {
      "id": 6,
      "poi_key": "marker514525M98085",
      "latitude": 51.4525747274209,
      "longitude": -9.808544415666153,
      "timestamp": "2025-05-03T13:02:13.000+0000",
      "device_id": 4,
      "address": "F53R+2H Garrydague, County Cork, Irland",
      "country": "Irland",
      "created_at": "2026-02-07 13:57:26",
      "updated_at": "2026-02-07 13:57:26"
    },
    {
      "id": 5,
      "poi_key": "marker515660M90858",
      "latitude": 51.56605625059086,
      "longitude": -9.085817764545725,
      "timestamp": "2025-05-03T10:51:15.000+0000",
      "device_id": 4,
      "address": "HW87+CM Droumgunna, County Cork, Irland",
      "country": "Irland",
      "created_at": "2026-02-07 13:56:20",
      "updated_at": "2026-02-07 13:56:20"
    },
    {
      "id": 36,
      "poi_key": "marker365339M63079",
      "latitude": 36.53394418154928,
      "longitude": -6.307929331118611,
      "timestamp": "2024-05-29T11:00:29.000+0000",
      "device_id": 4,
      "address": "C. Campo de las Balas, 5, 11002 Cádiz, Spanien",
      "country": "Spanien",
      "created_at": "2026-02-07 15:40:14",
      "updated_at": "2026-02-07 15:40:14"
    },
    {
      "id": 37,
      "poi_key": "marker360904M57701",
      "latitude": 36.09045412269573,
      "longitude": -5.770188001579855,
      "timestamp": "2024-05-29T08:42:25.000+0000",
      "device_id": 4,
      "address": "36RH+5W Bolonia, Spanien",
      "country": "Spanien",
      "created_at": "2026-02-07 15:41:35",
      "updated_at": "2026-02-07 15:41:35"
    }
  ]
}